{"type":"FeatureCollection", "features": [
{"type":"Feature","geometry":{"type":"Point","coordinates":[149.096944444444,-35.3255555555556,0]},"properties":{"Site Name":"DEAKIN EXCHANGE","Street":"109 KENT ST","City":"DEAKIN","State/terr":"ACT","Post code":2600,"AvailableS":"1600","SA1_CODE21":"80106106206","STE_CODE21":"8","STE_NAME21":"Australian Capital Territory"}},
{"type":"Feature","geometry":{"type":"Point","coordinates":[149.096944444444,-35.3255555555556,0]},"properties":{"Site Name":"DEAKIN EXCHANGE","Street":"109 KENT ST","City":"DEAKIN","State/terr":"ACT","Post code":2600,"AvailableS":"1600","SA1_CODE21":"80106106206","STE_CODE21":"8","STE_NAME21":"Australian Capital Territory"}},
{"type":"Feature","geometry":{"type":"Point","coordinates":[145.075833333333,-37.6577777777778,0]},"properties":{"Site Name":"SOUTH MORANG EXCHANGE","Street":"153 CENTENARY DR","City":"MILL PARK","State/terr":"VIC","Post code":3082,"AvailableS":"900","SA1_CODE21":"20904122035","STE_CODE21":"2","STE_NAME21":"Victoria"}},
{"type":"Feature","geometry":{"type":"Point","coordinates":[151.586944444444,-32.75,0]},"properties":{"Site Name":"MAITLAND EXCHANGE","Street":"58 KING ST","City":"EAST MAITLAND","State/terr":"NSW","Post code":2323,"AvailableS":"588","SA1_CODE21":"10602161405","STE_CODE21":"1","STE_NAME21":"New South Wales"}},
{"type":"Feature","geometry":{"type":"Point","coordinates":[115.854166666667,-31.9505555555556,0]},"properties":{"Site Name":"WELLINGTON EXCHANGE","Street":"639 WELLINGTON ST","City":"PERTH","State/terr":"WA","Post code":6000,"AvailableS":"1405","SA1_CODE21":"50302129713","STE_CODE21":"5","STE_NAME21":"Western Australia"}},
{"type":"Feature","geometry":{"type":"Point","coordinates":[138.596944444444,-34.9263888888889,0]},"properties":{"Site Name":"WAYMOUTH EXCHANGE","Street":"67 WAYMOUTH ST","City":"ADELAIDE","State/terr":"SA","Post code":5000,"AvailableS":"1900","SA1_CODE21":"40101100147","STE_CODE21":"4","STE_NAME21":"South Australia"}},
{"type":"Feature","geometry":{"type":"Point","coordinates":[151.228888888889,-33.8863888888889,0]},"properties":{"Site Name":"PADDINGTON","Street":"363 OXFORD ST","City":"PADDINGTON","State/terr":"NSW","Post code":2021,"AvailableS":"1500","SA1_CODE21":"11801134528","STE_CODE21":"1","STE_NAME21":"New South Wales"}},
{"type":"Feature","geometry":{"type":"Point","coordinates":[153.036111111111,-27.4838888888889,0]},"properties":{"Site Name":"WOOLLOONGABBA EXCHANGE","Street":"820 MAIN ST","City":"WOOLLOONGABBA","State/terr":"QLD","Post code":4102,"AvailableS":"1454","SA1_CODE21":"30501110818","STE_CODE21":"3","STE_NAME21":"Queensland"}},
{"type":"Feature","geometry":{"type":"Point","coordinates":[151.205555555556,-33.8808333333333,0]},"properties":{"Site Name":"HAYMARKET EXCHANGE","Street":"15 PARKER ST","City":"HAYMARKET","State/terr":"NSW","Post code":2000,"AvailableS":"1146","SA1_CODE21":"11703164521","STE_CODE21":"1","STE_NAME21":"New South Wales"}},
{"type":"Feature","geometry":{"type":"Point","coordinates":[151.205555555556,-33.8808333333333,0]},"properties":{"Site Name":"HAYMARKET EXCHANGE","Street":"15 PARKER ST","City":"HAYMARKET","State/terr":"NSW","Post code":2000,"AvailableS":"1146","SA1_CODE21":"11703164521","STE_CODE21":"1","STE_NAME21":"New South Wales"}},
{"type":"Feature","geometry":{"type":"Point","coordinates":[151.205555555556,-33.8380555555556,0]},"properties":{"Site Name":"NORTH SYDNEY EXCHANGE","Street":"1 WHEELER LANE","City":"NORTH SYDNEY","State/terr":"NSW","Post code":2060,"AvailableS":"680","SA1_CODE21":"12104141726","STE_CODE21":"1","STE_NAME21":"New South Wales"}},
{"type":"Feature","geometry":{"type":"Point","coordinates":[138.605,-34.9272222222222,0]},"properties":{"Site Name":"FLINDERS EXCHANGE","Street":"111 FLINDERS ST","City":"ADELAIDE","State/terr":"SA","Post code":5000,"AvailableS":"1059","SA1_CODE21":"40101100141","STE_CODE21":"4","STE_NAME21":"South Australia"}},
{"type":"Feature","geometry":{"type":"Point","coordinates":[138.605,-34.9272222222222,0]},"properties":{"Site Name":"FLINDERS EXCHANGE","Street":"111 FLINDERS ST","City":"ADELAIDE","State/terr":"SA","Post code":5000,"AvailableS":"1059","SA1_CODE21":"40101100141","STE_CODE21":"4","STE_NAME21":"South Australia"}},
{"type":"Feature","geometry":{"type":"Point","coordinates":[151.748611111111,-32.9258333333333,0]},"properties":{"Site Name":"HAMILTON EXCHANGE","Street":"104 LAWSON ST","City":"NewCastle","State/terr":"NSW","Post code":2303,"AvailableS":"727","SA1_CODE21":"11103122426","STE_CODE21":"1","STE_NAME21":"New South Wales"}},
{"type":"Feature","geometry":{"type":"Point","coordinates":[151.2225,-33.8783333333333,0]},"properties":{"Site Name":"CITY EAST","Street":"326 LIVERPOOL ST","City":"DARLINGHURST","State/terr":"NSW","Post code":2010,"AvailableS":"560","SA1_CODE21":"11703132926","STE_CODE21":"1","STE_NAME21":"New South Wales"}},
{"type":"Feature","geometry":{"type":"Point","coordinates":[149.186666666667,-21.1394444444444,0]},"properties":{"Site Name":"MACKAY EXCHANGE","Street":"35 RIVER ST","City":"MACKAY","State/terr":"QLD","Post code":4740,"AvailableS":"1027","SA1_CODE21":"31202134610","STE_CODE21":"3","STE_NAME21":"Queensland"}},
{"type":"Feature","geometry":{"type":"Point","coordinates":[146.817222222222,-19.2583333333333,0]},"properties":{"Site Name":"TOWNSVILLE EXCHANGE","Street":"22 STURT ST","City":"TOWNSVILLE","State/terr":"QLD","Post code":4810,"AvailableS":"742","SA1_CODE21":"31802149012","STE_CODE21":"3","STE_NAME21":"Queensland"}},
{"type":"Feature","geometry":{"type":"Point","coordinates":[151.076388888889,-33.9205555555556,0]},"properties":{"Site Name":"LAKEMBA EXCHANGE","Street":"20 CROYDON ST","City":"LAKEMBA","State/terr":"NSW","Post code":2195,"AvailableS":"626","SA1_CODE21":"11902157320","STE_CODE21":"1","STE_NAME21":"New South Wales"}},
{"type":"Feature","geometry":{"type":"Point","coordinates":[144.959444444444,-37.8136111111111,0]},"properties":{"Site Name":"LONSDALE EXCHANGE","Street":"447 LONSDALE ST","City":"MELBOURNE","State/terr":"VIC","Post code":3000,"AvailableS":"Exclude - Infrastructure remediation works high","SA1_CODE21":"20604150519","STE_CODE21":"2","STE_NAME21":"Victoria"}},
{"type":"Feature","geometry":{"type":"Point","coordinates":[144.959444444444,-37.8136111111111,0]},"properties":{"Site Name":"LONSDALE EXCHANGE","Street":"447 LONSDALE ST","City":"MELBOURNE","State/terr":"VIC","Post code":3000,"AvailableS":"Exclude - Infrastructure remediation works high","SA1_CODE21":"20604150519","STE_CODE21":"2","STE_NAME21":"Victoria"}},
{"type":"Feature","geometry":{"type":"Point","coordinates":[147.137222222222,-41.435,0]},"properties":{"Site Name":"ST JOHN EXCHANGE","Street":"43 ST JOHN ST","City":"LAUNCESTON","State/terr":"TAS","Post code":7250,"AvailableS":"572","SA1_CODE21":"60201103811","STE_CODE21":"6","STE_NAME21":"Tasmania"}},
{"type":"Feature","geometry":{"type":"Point","coordinates":[144.969444444444,-37.8086111111111,0]},"properties":{"Site Name":"EXHIBITION EXCHANGE","Street":"300 EXHIBITION ST","City":"MELBOURNE","State/terr":"VIC","Post code":3000,"AvailableS":"969","SA1_CODE21":"20604150323","STE_CODE21":"2","STE_NAME21":"Victoria"}},
{"type":"Feature","geometry":{"type":"Point","coordinates":[152.761111111111,-27.6147222222222,0]},"properties":{"Site Name":"IPSWICH EXCHANGE","Street":"76 BRISBANE ST","City":"IPSWICH","State/terr":"QLD","Post code":4305,"AvailableS":"542","SA1_CODE21":"31003128601","STE_CODE21":"3","STE_NAME21":"Queensland"}},
{"type":"Feature","geometry":{"type":"Point","coordinates":[151.204722222222,-33.8663888888889,0]},"properties":{"Site Name":"KENT","Street":"242 KENT ST","City":"SYDNEY","State/terr":"NSW","Post code":2000,"AvailableS":"100","SA1_CODE21":"11703164421","STE_CODE21":"1","STE_NAME21":"New South Wales"}},
{"type":"Feature","geometry":{"type":"Point","coordinates":[151.208333333333,-33.8630555555556,0]},"properties":{"Site Name":"DALLEY EXCHANGE","Street":"4 DALLEY ST","City":"SYDNEY","State/terr":"NSW","Post code":2000,"AvailableS":"100","SA1_CODE21":"11703164416","STE_CODE21":"1","STE_NAME21":"New South Wales"}},
{"type":"Feature","geometry":{"type":"Point","coordinates":[150.513,-23.378,0]},"properties":{"Site Name":"ROCKHAMPTON EXCHANGE","Street":"12 DENHAM ST","City":"ROCKHAMPTON","State/terr":"QLD","Post code":4700,"AvailableS":"719","SA1_CODE21":"30803121708","STE_CODE21":"3","STE_NAME21":"Queensland"}},
{"type":"Feature","geometry":{"type":"Point","coordinates":[151.956666666667,-27.5625,0]},"properties":{"Site Name":"TOOWOOMBA EXCHANGE","Street":"157 HUME ST","City":"TOOWOOMBA","State/terr":"QLD","Post code":4350,"AvailableS":"704","SA1_CODE21":"31701145605","STE_CODE21":"3","STE_NAME21":"Queensland"}},
{"type":"Feature","geometry":{"type":"Point","coordinates":[150.908055555556,-33.7705555555556,0]},"properties":{"Site Name":"BLACKTOWN EXCHANGE","Street":"17 FLUSHCOMBE RD","City":"BLACKTOWN","State/terr":"NSW","Post code":2148,"AvailableS":"100","SA1_CODE21":"11601130340","STE_CODE21":"1","STE_NAME21":"New South Wales"}},
{"type":"Feature","geometry":{"type":"Point","coordinates":[151.195544,-33.884739,0]},"properties":{"Site Name":"SYDNEY INTERNATIONAL (BROADWAY) EXCHANGE","Street":"184 BROADWAY","City":"CHIPPENDALE","State/terr":"NSW","Post code":2008,"AvailableS":"100","SA1_CODE21":"11703163912","STE_CODE21":"1","STE_NAME21":"New South Wales"}},
{"type":"Feature","geometry":{"type":"Point","coordinates":[130.836388888889,-12.4583333333333,0]},"properties":{"Site Name":"DARWIN SMITH ST EXCHANGE","Street":"99 SMITH ST","City":"DARWIN","State/terr":"NT","Post code":800,"AvailableS":"560","SA1_CODE21":"70101100225","STE_CODE21":"7","STE_NAME21":"Northern Territory"}},
{"type":"Feature","geometry":{"type":"Point","coordinates":[149.131944444444,-35.2713888888889,0]},"properties":{"Site Name":"CIVIC EXCHANGE","Street":"50 MORT ST","City":"BRADDON","State/terr":"ACT","Post code":2612,"AvailableS":"568","SA1_CODE21":"80105105119","STE_CODE21":"8","STE_NAME21":"Australian Capital Territory"}},
{"type":"Feature","geometry":{"type":"Point","coordinates":[153.025277777778,-27.4719444444444,0]},"properties":{"Site Name":"CHARLOTTE EXCHANGE","Street":"20 CHARLOTTE ST","City":"BRISBANE","State/terr":"QLD","Post code":4000,"AvailableS":"392","SA1_CODE21":"30501110532","STE_CODE21":"3","STE_NAME21":"Queensland"}},
{"type":"Feature","geometry":{"type":"Point","coordinates":[151.0025,-33.8138888888889,0]},"properties":{"Site Name":"PARRAMATTA EXCHANGE","Street":"91 MARSDEN ST","City":"PARRAMATTA","State/terr":"NSW","Post code":2150,"AvailableS":"100","SA1_CODE21":"12504171704","STE_CODE21":"1","STE_NAME21":"New South Wales"}},
{"type":"Feature","geometry":{"type":"Point","coordinates":[151.179166666667,-33.8961111111111,0]},"properties":{"Site Name":"NEWTOWN EXCHANGE","Street":"295 KING ST","City":"NEWTOWN","State/terr":"NSW","Post code":2042,"AvailableS":"100","SA1_CODE21":"11703164013","STE_CODE21":"1","STE_NAME21":"New South Wales"}},
{"type":"Feature","geometry":{"type":"Point","coordinates":[144.991111111111,-37.8561111111111,0]},"properties":{"Site Name":"WINDSOR EXCHANGE","Street":"152 PEEL ST","City":"WINDSOR","State/terr":"VIC","Post code":3181,"AvailableS":"100","SA1_CODE21":"20606113629","STE_CODE21":"2","STE_NAME21":"Victoria"}},
{"type":"Feature","geometry":{"type":"Point","coordinates":[144.355555555556,-38.1488888888889,0]},"properties":{"Site Name":"GEELONG","Street":"17 LITTLE RYRIE ST","City":"GEELONG","State/terr":"VIC","Post code":3220,"AvailableS":"338","SA1_CODE21":"20302103911","STE_CODE21":"2","STE_NAME21":"Victoria"}},
{"type":"Feature","geometry":{"type":"Point","coordinates":[151.180555555556,-33.7975,0]},"properties":{"Site Name":"CHATSWOOD","Street":"1 THOMAS ST","City":"CHATSWOOD","State/terr":"NSW","Post code":2067,"AvailableS":"100","SA1_CODE21":"12101168441","STE_CODE21":"1","STE_NAME21":"New South Wales"}},
{"type":"Feature","geometry":{"type":"Point","coordinates":[150.889722222222,-34.4252777777778,0]},"properties":{"Site Name":"WOLLONGONG EXCHANGE","Street":"296 CROWN ST","City":"WOLLONGONG","State/terr":"NSW","Post code":2500,"AvailableS":"396","SA1_CODE21":"10704154832","STE_CODE21":"1","STE_NAME21":"New South Wales"}},
{"type":"Feature","geometry":{"type":"Point","coordinates":[151.196111111111,-33.8236111111111,0]},"properties":{"Site Name":"ST LEONARDS EXCHANGE","Street":"524 PACIFIC HWY","City":"ST LEONARDS","State/terr":"NSW","Post code":2065,"AvailableS":"100","SA1_CODE21":"12101140131","STE_CODE21":"1","STE_NAME21":"New South Wales"}},
{"type":"Feature","geometry":{"type":"Point","coordinates":[151.083611111111,-33.8727777777778,0]},"properties":{"Site Name":"HOMEBUSH EXCHANGE","Street":"68 BERESFORD RD","City":"STRATHFIELD","State/terr":"NSW","Post code":2135,"AvailableS":"100","SA1_CODE21":"12003168102","STE_CODE21":"1","STE_NAME21":"New South Wales"}},
{"type":"Feature","geometry":{"type":"Point","coordinates":[151.005,-33.7322222222222,0]},"properties":{"Site Name":"CASTLE HILL EXCHANGE","Street":"4 CASTLE PL","City":"CASTLE HILL","State/terr":"NSW","Post code":2154,"AvailableS":"100","SA1_CODE21":"11501155512","STE_CODE21":"1","STE_NAME21":"New South Wales"}},
{"type":"Feature","geometry":{"type":"Point","coordinates":[145.399722222222,-36.3805555555556,0]},"properties":{"Site Name":"SHEPPARTON EXCHANGE","Street":"307 WYNDHAM ST","City":"SHEPPARTON","State/terr":"VIC","Post code":3630,"AvailableS":"100","SA1_CODE21":"21603141618","STE_CODE21":"2","STE_NAME21":"Victoria"}},
{"type":"Feature","geometry":{"type":"Point","coordinates":[150.968888888889,-33.8883333333333,0]},"properties":{"Site Name":"CARRAMAR EXCHANGE","Street":"6 THE HORSLEY DR","City":"CARRAMAR","State/terr":"NSW","Post code":2163,"AvailableS":"100","SA1_CODE21":"12503148003","STE_CODE21":"1","STE_NAME21":"New South Wales"}},
{"type":"Feature","geometry":{"type":"Point","coordinates":[149.231666666667,-35.3533333333333,0]},"properties":{"Site Name":"QUEANBEYAN EXCHANGE","Street":"36 LOWE ST","City":"QUEANBEYAN","State/terr":"NSW","Post code":2620,"AvailableS":"100","SA1_CODE21":"10102100919","STE_CODE21":"1","STE_NAME21":"New South Wales"}},
{"type":"Feature","geometry":{"type":"Point","coordinates":[153.413333333333,-27.9672222222222,0]},"properties":{"Site Name":"SOUTHPORT EXCHANGE","Street":"41 NERANG RD","City":"SOUTHPORT","State/terr":"QLD","Post code":4215,"AvailableS":"398","SA1_CODE21":"30909154013","STE_CODE21":"3","STE_NAME21":"Queensland"}},
{"type":"Feature","geometry":{"type":"Point","coordinates":[144.952777777778,-37.8038888888889,0]},"properties":{"Site Name":"NORTH MELBOURNE","Street":"168 CHETWYND ST","City":"NORTH MELBOURNE","State/terr":"VIC","Post code":3051,"AvailableS":"100","SA1_CODE21":"20604150603","STE_CODE21":"2","STE_NAME21":"Victoria"}},
{"type":"Feature","geometry":{"type":"Point","coordinates":[151.341666666667,-33.4297222222222,0]},"properties":{"Site Name":"GOSFORD EXCHANGE","Street":"21 MANN ST","City":"GOSFORD","State/terr":"NSW","Post code":2250,"AvailableS":"100","SA1_CODE21":"10201103224","STE_CODE21":"1","STE_NAME21":"New South Wales"}},
{"type":"Feature","geometry":{"type":"Point","coordinates":[150.923888888889,-33.9261111111111,0]},"properties":{"Site Name":"LIVERPOOL EXCHANGE","Street":"40 TERMINUS ST","City":"LIVERPOOL","State/terr":"NSW","Post code":2170,"AvailableS":"100","SA1_CODE21":"12703173110","STE_CODE21":"1","STE_NAME21":"New South Wales"}},
{"type":"Feature","geometry":{"type":"Point","coordinates":[150.923888888889,-33.9261111111111,0]},"properties":{"Site Name":"LIVERPOOL EXCHANGE","Street":"40 TERMINUS ST","City":"LIVERPOOL","State/terr":"NSW","Post code":2170,"AvailableS":"100","SA1_CODE21":"12703173110","STE_CODE21":"1","STE_NAME21":"New South Wales"}},
{"type":"Feature","geometry":{"type":"Point","coordinates":[151.032222222222,-33.9166666666667,0]},"properties":{"Site Name":"BANKSTOWN EXCHANGE","Street":"12 KITCHENER PDE","City":"BANKSTOWN","State/terr":"NSW","Post code":2200,"AvailableS":"100","SA1_CODE21":"11901157139","STE_CODE21":"1","STE_NAME21":"New South Wales"}},
{"type":"Feature","geometry":{"type":"Point","coordinates":[151.032222222222,-33.9166666666667,0]},"properties":{"Site Name":"BANKSTOWN EXCHANGE","Street":"12 KITCHENER PDE","City":"BANKSTOWN","State/terr":"NSW","Post code":2200,"AvailableS":"100","SA1_CODE21":"11901157139","STE_CODE21":"1","STE_NAME21":"New South Wales"}},
{"type":"Feature","geometry":{"type":"Point","coordinates":[151.208888888889,-33.8758333333333,0]},"properties":{"Site Name":"CITY SOUTH","Street":"225-227 Castlereagh St","City":"SYDNEY","State/terr":"NSW","Post code":2000,"AvailableS":"100","SA1_CODE21":"11703164509","STE_CODE21":"1","STE_NAME21":"New South Wales"}},
{"type":"Feature","geometry":{"type":"Point","coordinates":[150.601388888889,-34.8758333333333,0]},"properties":{"Site Name":"NOWRA EXCHANGE","Street":"39 STEWART PL","City":"NOWRA","State/terr":"NSW","Post code":2541,"AvailableS":"100","SA1_CODE21":"11401127808","STE_CODE21":"1","STE_NAME21":"New South Wales"}},
{"type":"Feature","geometry":{"type":"Point","coordinates":[151.065277777778,-33.9527777777778,0]},"properties":{"Site Name":"PEAKHURST EXCHANGE","Street":"41 BAUMANS RD","City":"PEAKHURST","State/terr":"NSW","Post code":2210,"AvailableS":"100","SA1_CODE21":"11903137021","STE_CODE21":"1","STE_NAME21":"New South Wales"}},
{"type":"Feature","geometry":{"type":"Point","coordinates":[151.101666666667,-34.0344444444444,0]},"properties":{"Site Name":"MIRANDA EXCHANGE","Street":"574 KINGSWAY","City":"MIRANDA","State/terr":"NSW","Post code":2228,"AvailableS":"100","SA1_CODE21":"12801153043","STE_CODE21":"1","STE_NAME21":"New South Wales"}},
{"type":"Feature","geometry":{"type":"Point","coordinates":[147.371111111111,-35.1063888888889,0]},"properties":{"Site Name":"WAGGA WAGGA EXCHANGE","Street":"226 TARCUTTA ST","City":"WAGGA WAGGA","State/terr":"NSW","Post code":2650,"AvailableS":"371","SA1_CODE21":"11303127032","STE_CODE21":"1","STE_NAME21":"New South Wales"}},
{"type":"Feature","geometry":{"type":"Point","coordinates":[151.188611111111,-33.8805555555556,0]},"properties":{"Site Name":"GLEBE EXCHANGE","Street":"120 ST JOHNS RD","City":"GLEBE","State/terr":"NSW","Post code":2037,"AvailableS":"100","SA1_CODE21":"11703133131","STE_CODE21":"1","STE_NAME21":"New South Wales"}},
{"type":"Feature","geometry":{"type":"Point","coordinates":[144.9575,-37.8355555555556,0]},"properties":{"Site Name":"SOUTH MELBOURNE EXCHANGE","Street":"255 BANK ST","City":"SOUTH MELBOURNE","State/terr":"VIC","Post code":3205,"AvailableS":"100","SA1_CODE21":"20605151227","STE_CODE21":"2","STE_NAME21":"Victoria"}},
{"type":"Feature","geometry":{"type":"Point","coordinates":[145.000277777778,-37.7583333333333,0]},"properties":{"Site Name":"THORNBURY EXCHANGE","Street":"739 HIGH ST","City":"THORNBURY","State/terr":"VIC","Post code":3071,"AvailableS":"100","SA1_CODE21":"20602111239","STE_CODE21":"2","STE_NAME21":"Victoria"}},
{"type":"Feature","geometry":{"type":"Point","coordinates":[145.000277777778,-37.7583333333333,0]},"properties":{"Site Name":"THORNBURY EXCHANGE","Street":"739 HIGH ST","City":"THORNBURY","State/terr":"VIC","Post code":3071,"AvailableS":"100","SA1_CODE21":"20602111239","STE_CODE21":"2","STE_NAME21":"Victoria"}},
{"type":"Feature","geometry":{"type":"Point","coordinates":[115.824444444444,-31.95,0]},"properties":{"Site Name":"SUBIACO EXCHANGE","Street":"172 ROKEBY RD","City":"SUBIACO","State/terr":"WA","Post code":6008,"AvailableS":"100","SA1_CODE21":"50302104235","STE_CODE21":"5","STE_NAME21":"Western Australia"}},
{"type":"Feature","geometry":{"type":"Point","coordinates":[151.044166666667,-33.8647222222222,0]},"properties":{"Site Name":"LIDCOMBE EXCHANGE","Street":"1 TAYLOR ST","City":"LIDCOMBE","State/terr":"NSW","Post code":2141,"AvailableS":"100","SA1_CODE21":"12501158659","STE_CODE21":"1","STE_NAME21":"New South Wales"}},
{"type":"Feature","geometry":{"type":"Point","coordinates":[145.772777777778,-16.9238888888889,0]},"properties":{"Site Name":"CAIRNS EXCHANGE","Street":"82 SHIELDS ST","City":"CAIRNS","State/terr":"QLD","Post code":4870,"AvailableS":"340","SA1_CODE21":"30602114527","STE_CODE21":"3","STE_NAME21":"Queensland"}},
{"type":"Feature","geometry":{"type":"Point","coordinates":[145.216111111111,-37.9869444444444,0]},"properties":{"Site Name":"DANDENONG","Street":"149 WALKER ST","City":"DANDENONG","State/terr":"VIC","Post code":3175,"AvailableS":"100","SA1_CODE21":"21204156336","STE_CODE21":"2","STE_NAME21":"Victoria"}},
{"type":"Feature","geometry":{"type":"Point","coordinates":[143.854722222222,-37.5647222222222,0]},"properties":{"Site Name":"BALLARAT EXCHANGE","Street":"105 DOVETON ST","City":"BALLARAT","State/terr":"VIC","Post code":3350,"AvailableS":"310","SA1_CODE21":"20101100219","STE_CODE21":"2","STE_NAME21":"Victoria"}},
{"type":"Feature","geometry":{"type":"Point","coordinates":[143.854722222222,-37.5647222222222,0]},"properties":{"Site Name":"BALLARAT EXCHANGE","Street":"105 DOVETON ST","City":"BALLARAT","State/terr":"VIC","Post code":3350,"AvailableS":"310","SA1_CODE21":"20101100219","STE_CODE21":"2","STE_NAME21":"Victoria"}},
{"type":"Feature","geometry":{"type":"Point","coordinates":[143.854722222222,-37.5647222222222,0]},"properties":{"Site Name":"BALLARAT EXCHANGE","Street":"105 DOVETON ST","City":"BALLARAT","State/terr":"VIC","Post code":3350,"AvailableS":"310","SA1_CODE21":"20101100219","STE_CODE21":"2","STE_NAME21":"Victoria"}},
{"type":"Feature","geometry":{"type":"Point","coordinates":[143.854722222222,-37.5647222222222,0]},"properties":{"Site Name":"BALLARAT EXCHANGE","Street":"105 DOVETON ST","City":"BALLARAT","State/terr":"VIC","Post code":3350,"AvailableS":"310","SA1_CODE21":"20101100219","STE_CODE21":"2","STE_NAME21":"Victoria"}},
{"type":"Feature","geometry":{"type":"Point","coordinates":[143.854722222222,-37.5647222222222,0]},"properties":{"Site Name":"BALLARAT EXCHANGE","Street":"105 DOVETON ST","City":"BALLARAT","State/terr":"VIC","Post code":3350,"AvailableS":"310","SA1_CODE21":"20101100219","STE_CODE21":"2","STE_NAME21":"Victoria"}},
{"type":"Feature","geometry":{"type":"Point","coordinates":[117.556111111111,-33.6894444444444,0]},"properties":{"Site Name":"KATANNING EXCHANGE","Street":"4 RICHARDSON ST","City":"KATANNING","State/terr":"WA","Post code":6317,"AvailableS":"100","SA1_CODE21":"50901123007","STE_CODE21":"5","STE_NAME21":"Western Australia"}},
{"type":"Feature","geometry":{"type":"Point","coordinates":[138.6025,-34.8916666666667,0]},"properties":{"Site Name":"PROSPECT EXCHANGE","Street":"73 BALLVILLE ST","City":"PROSPECT","State/terr":"SA","Post code":5082,"AvailableS":"100","SA1_CODE21":"40106102129","STE_CODE21":"4","STE_NAME21":"South Australia"}},
{"type":"Feature","geometry":{"type":"Point","coordinates":[144.276111111111,-36.7613888888889,0]},"properties":{"Site Name":"BENDIGO (SHORT ST) EXCHANGE","Street":"38 SHORT ST","City":"BENDIGO","State/terr":"VIC","Post code":3550,"AvailableS":"100","SA1_CODE21":"20201101810","STE_CODE21":"2","STE_NAME21":"Victoria"}},
{"type":"Feature","geometry":{"type":"Point","coordinates":[144.276111111111,-36.7613888888889,0]},"properties":{"Site Name":"BENDIGO (SHORT ST) EXCHANGE","Street":"38 SHORT ST","City":"BENDIGO","State/terr":"VIC","Post code":3550,"AvailableS":"100","SA1_CODE21":"20201101810","STE_CODE21":"2","STE_NAME21":"Victoria"}},
{"type":"Feature","geometry":{"type":"Point","coordinates":[144.276111111111,-36.7613888888889,0]},"properties":{"Site Name":"BENDIGO (SHORT ST) EXCHANGE","Street":"38 SHORT ST","City":"BENDIGO","State/terr":"VIC","Post code":3550,"AvailableS":"100","SA1_CODE21":"20201101810","STE_CODE21":"2","STE_NAME21":"Victoria"}},
{"type":"Feature","geometry":{"type":"Point","coordinates":[144.276111111111,-36.7613888888889,0]},"properties":{"Site Name":"BENDIGO (SHORT ST) EXCHANGE","Street":"38 SHORT ST","City":"BENDIGO","State/terr":"VIC","Post code":3550,"AvailableS":"100","SA1_CODE21":"20201101810","STE_CODE21":"2","STE_NAME21":"Victoria"}},
{"type":"Feature","geometry":{"type":"Point","coordinates":[144.998055555556,-37.7763888888889,0]},"properties":{"Site Name":"NORTHCOTE EXCHANGE","Street":"156 HIGH ST","City":"NORTHCOTE","State/terr":"VIC","Post code":3070,"AvailableS":"100","SA1_CODE21":"20602149919","STE_CODE21":"2","STE_NAME21":"Victoria"}},
{"type":"Feature","geometry":{"type":"Point","coordinates":[144.984166666667,-37.8641666666667,0]},"properties":{"Site Name":"ST KILDA EXCHANGE","Street":"62 INKERMAN ST","City":"ST KILDA","State/terr":"VIC","Post code":3182,"AvailableS":"100","SA1_CODE21":"20605151304","STE_CODE21":"2","STE_NAME21":"Victoria"}},
{"type":"Feature","geometry":{"type":"Point","coordinates":[145.119722222222,-37.8202777777778,0]},"properties":{"Site Name":"BOX HILL EXCHANGE","Street":"75 CARRINGTON RD","City":"BOX HILL","State/terr":"VIC","Post code":3128,"AvailableS":"100","SA1_CODE21":"20703116352","STE_CODE21":"2","STE_NAME21":"Victoria"}},
{"type":"Feature","geometry":{"type":"Point","coordinates":[115.863333333333,-31.9536111111111,0]},"properties":{"Site Name":"PIER EXCHANGE","Street":"98 PIER ST","City":"PERTH","State/terr":"WA","Post code":6000,"AvailableS":"251","SA1_CODE21":"50302129729","STE_CODE21":"5","STE_NAME21":"Western Australia"}},
{"type":"Feature","geometry":{"type":"Point","coordinates":[153.105833333333,-27.5902777777778,0]},"properties":{"Site Name":"EIGHT MILE PLAINS EXCHANGE","Street":"23 MILLERS RD","City":"EIGHT MILE PLAINS","State/terr":"QLD","Post code":4113,"AvailableS":"100","SA1_CODE21":"30303106043","STE_CODE21":"3","STE_NAME21":"Queensland"}},
{"type":"Feature","geometry":{"type":"Point","coordinates":[138.572222222222,-34.9619444444444,0]},"properties":{"Site Name":"EDWARDSTOWN","Street":"688 SOUTH RD","City":"GLANDORE","State/terr":"SA","Post code":5037,"AvailableS":"100","SA1_CODE21":"40302105825","STE_CODE21":"4","STE_NAME21":"South Australia"}},
{"type":"Feature","geometry":{"type":"Point","coordinates":[150.811944444444,-34.0680555555556,0]},"properties":{"Site Name":"CAMPBELLTOWN EXCHANGE","Street":"261 QUEEN ST","City":"CAMPBELLTOWN","State/terr":"NSW","Post code":2560,"AvailableS":"100","SA1_CODE21":"12302143709","STE_CODE21":"1","STE_NAME21":"New South Wales"}},
{"type":"Feature","geometry":{"type":"Point","coordinates":[153.118055555556,-27.6380555555556,0]},"properties":{"Site Name":"SLACKS CREEK EXCHANGE","Street":"257 KINGSTON RD","City":"LOGAN CENTRAL","State/terr":"QLD","Post code":4114,"AvailableS":"100","SA1_CODE21":"31106133102","STE_CODE21":"3","STE_NAME21":"Queensland"}},
{"type":"Feature","geometry":{"type":"Point","coordinates":[146.915,-36.0819444444444,0]},"properties":{"Site Name":"ALBURY EXCHANGE","Street":"475 KIEWA ST","City":"ALBURY","State/terr":"NSW","Post code":2640,"AvailableS":"209","SA1_CODE21":"10901117401","STE_CODE21":"1","STE_NAME21":"New South Wales"}},
{"type":"Feature","geometry":{"type":"Point","coordinates":[151.225,-33.7522222222222,0]},"properties":{"Site Name":"FRENCHS FOREST","Street":"510 WARRINGAH RD","City":"FRENCHS FOREST","State/terr":"NSW","Post code":2086,"AvailableS":"100","SA1_CODE21":"12203169641","STE_CODE21":"1","STE_NAME21":"New South Wales"}},
{"type":"Feature","geometry":{"type":"Point","coordinates":[153.426666666667,-28.0491666666667,0]},"properties":{"Site Name":"MERRIMAC EXCHANGE","Street":"199 SUNSHINE BLVD","City":"MERMAID WATERS","State/terr":"QLD","Post code":4218,"AvailableS":"204","SA1_CODE21":"30901122820","STE_CODE21":"3","STE_NAME21":"Queensland"}},
{"type":"Feature","geometry":{"type":"Point","coordinates":[147.324722222222,-42.8811111111111,0]},"properties":{"Site Name":"BATHURST EXCHANGE","Street":"89 BATHURST ST","City":"HOBART","State/terr":"TAS","Post code":7000,"AvailableS":"201","SA1_CODE21":"60105102717","STE_CODE21":"6","STE_NAME21":"Tasmania"}},
{"type":"Feature","geometry":{"type":"Point","coordinates":[150.931666666667,-31.0916666666667,0]},"properties":{"Site Name":"TAMWORTH","Street":"23 FITZROY ST","City":"TAMWORTH","State/terr":"NSW","Post code":2340,"AvailableS":"195","SA1_CODE21":"11004120311","STE_CODE21":"1","STE_NAME21":"New South Wales"}},
{"type":"Feature","geometry":{"type":"Point","coordinates":[144.986666666667,-37.8072222222222,0]},"properties":{"Site Name":"COLLINGWOOD EXCHANGE","Street":"54 WELLINGTON ST","City":"COLLINGWOOD","State/terr":"VIC","Post code":3066,"AvailableS":"100","SA1_CODE21":"20607114124","STE_CODE21":"2","STE_NAME21":"Victoria"}},
{"type":"Feature","geometry":{"type":"Point","coordinates":[151.244722222222,-33.8291666666667,0]},"properties":{"Site Name":"MOSMAN EXCHANGE","Street":"846 MILITARY RD","City":"MOSMAN","State/terr":"NSW","Post code":2088,"AvailableS":"100","SA1_CODE21":"12104168803","STE_CODE21":"1","STE_NAME21":"New South Wales"}},
{"type":"Feature","geometry":{"type":"Point","coordinates":[153.076944444444,-27.4933333333333,0]},"properties":{"Site Name":"CAMP HILL EXCHANGE","Street":"593 OLD CLEVELAND RD","City":"CAMP HILL","State/terr":"QLD","Post code":4152,"AvailableS":"100","SA1_CODE21":"30301104701","STE_CODE21":"3","STE_NAME21":"Queensland"}},
{"type":"Feature","geometry":{"type":"Point","coordinates":[144.961388888889,-37.8177777777778,0]},"properties":{"Site Name":"BATMAN","Street":"380 FLINDERS LANE","City":"MELBOURNE","State/terr":"VIC","Post code":3000,"AvailableS":"100","SA1_CODE21":"20604150503","STE_CODE21":"2","STE_NAME21":"Victoria"}},
{"type":"Feature","geometry":{"type":"Point","coordinates":[114.61,-28.77361111111111,0]},"properties":{"Site Name":"GERALDTON EXCHANGE","Street":"15 CHAPMAN RD","City":"GERALDTON","State/terr":"WA","Post code":6530,"AvailableS":"100","SA1_CODE21":"51104128505","STE_CODE21":"5","STE_NAME21":"Western Australia"}},
{"type":"Feature","geometry":{"type":"Point","coordinates":[138.687222222222,-34.8294444444444,0]},"properties":{"Site Name":"MODBURY","Street":"130 RESERVOIR RD","City":"MODBURY","State/terr":"SA","Post code":5092,"AvailableS":"100","SA1_CODE21":"40205105235","STE_CODE21":"4","STE_NAME21":"South Australia"}},
{"type":"Feature","geometry":{"type":"Point","coordinates":[115.791388888889,-32.0627777777778,0]},"properties":{"Site Name":"HILTON PARK EXCHANGE","Street":"8 CHAMBERLAIN ST","City":"HILTON","State/terr":"WA","Post code":6163,"AvailableS":"100","SA1_CODE21":"50702116701","STE_CODE21":"5","STE_NAME21":"Western Australia"}},
{"type":"Feature","geometry":{"type":"Point","coordinates":[144.963055555556,-37.7680555555556,0]},"properties":{"Site Name":"BRUNSWICK EXCHANGE","Street":"1 FRITH ST","City":"BRUNSWICK","State/terr":"VIC","Post code":3056,"AvailableS":"100","SA1_CODE21":"20601149612","STE_CODE21":"2","STE_NAME21":"Victoria"}},
{"type":"Feature","geometry":{"type":"Point","coordinates":[145.161111111111,-37.9025,0]},"properties":{"Site Name":"WHEELERS HILL","Street":"535 SPRINGVALE RD","City":"WHEELERS HILL","State/terr":"VIC","Post code":3150,"AvailableS":"100","SA1_CODE21":"21205132226","STE_CODE21":"2","STE_NAME21":"Victoria"}},
{"type":"Feature","geometry":{"type":"Point","coordinates":[152.348055555556,-24.8658333333333,0]},"properties":{"Site Name":"BUNDABERG EXCHANGE","Street":"157 BOURBONG ST","City":"BUNDABERG","State/terr":"QLD","Post code":4670,"AvailableS":"100","SA1_CODE21":"31901149504","STE_CODE21":"3","STE_NAME21":"Queensland"}},
{"type":"Feature","geometry":{"type":"Point","coordinates":[145.036388888889,-37.8222222222222,0]},"properties":{"Site Name":"HAWTHORN EXCHANGE","Street":"375 BURWOOD RD","City":"HAWTHORN","State/terr":"VIC","Post code":3122,"AvailableS":"100","SA1_CODE21":"20701152005","STE_CODE21":"2","STE_NAME21":"Victoria"}},
{"type":"Feature","geometry":{"type":"Point","coordinates":[145.264166666667,-37.8405555555556,0]},"properties":{"Site Name":"BAYSWATER EXCHANGE","Street":"3 VALENTINE ST","City":"BAYSWATER","State/terr":"VIC","Post code":3153,"AvailableS":"100","SA1_CODE21":"21101125120","STE_CODE21":"2","STE_NAME21":"Victoria"}},
{"type":"Feature","geometry":{"type":"Point","coordinates":[151.139166666667,-33.9483333333333,0]},"properties":{"Site Name":"ROCKDALE EXCHANGE","Street":"393 PRINCES HWY","City":"ROCKDALE","State/terr":"NSW","Post code":2216,"AvailableS":"100","SA1_CODE21":"11904138139","STE_CODE21":"1","STE_NAME21":"New South Wales"}},
{"type":"Feature","geometry":{"type":"Point","coordinates":[153.113055555556,-30.2966666666667,0]},"properties":{"Site Name":"COFFS HARBOUR EXCHANGE","Street":"3 MOONEE ST","City":"COFFS HARBOUR","State/terr":"NSW","Post code":2450,"AvailableS":"111","SA1_CODE21":"10402108530","STE_CODE21":"1","STE_NAME21":"New South Wales"}},
{"type":"Feature","geometry":{"type":"Point","coordinates":[151.109444444444,-33.9158333333333,0]},"properties":{"Site Name":"CAMPSIE EXCHANGE","Street":"395 CANTERBURY RD","City":"CAMPSIE","State/terr":"NSW","Post code":2194,"AvailableS":"100","SA1_CODE21":"11902166003","STE_CODE21":"1","STE_NAME21":"New South Wales"}},
{"type":"Feature","geometry":{"type":"Point","coordinates":[150.698888888889,-33.7527777777778,0]},"properties":{"Site Name":"PENRITH EXCHANGE","Street":"90 HENRY ST","City":"PENRITH","State/terr":"NSW","Post code":2750,"AvailableS":"100","SA1_CODE21":"12403146426","STE_CODE21":"1","STE_NAME21":"New South Wales"}},
{"type":"Feature","geometry":{"type":"Point","coordinates":[151.10523,-33.813543,0]},"properties":{"Site Name":"RYDE EXCHANGE","Street":"116 BLAXLAND RD","City":"RYDE","State/terr":"NSW","Post code":2112,"AvailableS":"100","SA1_CODE21":"12602172435","STE_CODE21":"1","STE_NAME21":"New South Wales"}},
{"type":"Feature","geometry":{"type":"Point","coordinates":[145.055555555556,-37.9644444444444,0]},"properties":{"Site Name":"CHELTENHAM","Street":"315 CHARMAN RD","City":"CHELTENHAM","State/terr":"VIC","Post code":3192,"AvailableS":"100","SA1_CODE21":"20803118849","STE_CODE21":"2","STE_NAME21":"Victoria"}},
{"type":"Feature","geometry":{"type":"Point","coordinates":[150.960277777778,-33.805,0]},"properties":{"Site Name":"PENDLE HILL EXCHANGE","Street":"211 DUNMORE ST","City":"PENDLE HILL","State/terr":"NSW","Post code":2145,"AvailableS":"100","SA1_CODE21":"12504158802","STE_CODE21":"1","STE_NAME21":"New South Wales"}},
{"type":"Feature","geometry":{"type":"Point","coordinates":[145.3525,-37.7583333333333,0]},"properties":{"Site Name":"LILYDALE EXCHANGE","Street":"HARDY ST","City":"LILYDALE","State/terr":"VIC","Post code":3140,"AvailableS":"100","SA1_CODE21":"21105127821","STE_CODE21":"2","STE_NAME21":"Victoria"}},
{"type":"Feature","geometry":{"type":"Point","coordinates":[145.3525,-37.7583333333333,0]},"properties":{"Site Name":"LILYDALE EXCHANGE","Street":"HARDY ST","City":"LILYDALE","State/terr":"VIC","Post code":3140,"AvailableS":"100","SA1_CODE21":"21105127821","STE_CODE21":"2","STE_NAME21":"Victoria"}},
{"type":"Feature","geometry":{"type":"Point","coordinates":[153.383333333333,-27.9938888888889,0]},"properties":{"Site Name":"ASHMORE EXCHANGE","Street":"57 CURRUMBURRA RD","City":"ASHMORE","State/terr":"QLD","Post code":4214,"AvailableS":"100","SA1_CODE21":"30909126320","STE_CODE21":"3","STE_NAME21":"Queensland"}},
{"type":"Feature","geometry":{"type":"Point","coordinates":[115.949166666667,-31.9047222222222,0]},"properties":{"Site Name":"BASSENDEAN EXCHANGE","Street":"WILSON ST","City":"BASSENDEAN","State/terr":"WA","Post code":6054,"AvailableS":"100","SA1_CODE21":"50401104435","STE_CODE21":"5","STE_NAME21":"Western Australia"}},
{"type":"Feature","geometry":{"type":"Point","coordinates":[146.536944444444,-38.195,0]},"properties":{"Site Name":"TRARALGON EXCHANGE","Street":"7 KAY ST","City":"TRARALGON","State/terr":"VIC","Post code":3844,"AvailableS":"286","SA1_CODE21":"20504149309","STE_CODE21":"2","STE_NAME21":"Victoria"}},
{"type":"Feature","geometry":{"type":"Point","coordinates":[138.668611111111,-34.7222222222222,0]},"properties":{"Site Name":"ELIZABETH EXCHANGE","Street":"24 PHILIP HWY","City":"ELIZABETH","State/terr":"SA","Post code":5112,"AvailableS":"100","SA1_CODE21":"40202103025","STE_CODE21":"4","STE_NAME21":"South Australia"}},
{"type":"Feature","geometry":{"type":"Point","coordinates":[151.220555555556,-33.91,0]},"properties":{"Site Name":"KENSINGTON EXCHANGE","Street":"113 TODMAN AVE","City":"KENSINGTON","State/terr":"NSW","Post code":2033,"AvailableS":"100","SA1_CODE21":"11802156410","STE_CODE21":"1","STE_NAME21":"New South Wales"}},
{"type":"Feature","geometry":{"type":"Point","coordinates":[115.931944444444,-32.0172222222222,0]},"properties":{"Site Name":"CANNINGTON EXCHANGE","Street":"1329 ALBANY HWY","City":"CANNINGTON","State/terr":"WA","Post code":6107,"AvailableS":"100","SA1_CODE21":"50603112724","STE_CODE21":"5","STE_NAME21":"Western Australia"}},
{"type":"Feature","geometry":{"type":"Point","coordinates":[145.029166666667,-37.8083333333333,0]},"properties":{"Site Name":"KEW EXCHANGE","Street":"106 DENMARK ST","City":"KEW","State/terr":"VIC","Post code":3101,"AvailableS":"100","SA1_CODE21":"20701152108","STE_CODE21":"2","STE_NAME21":"Victoria"}},
{"type":"Feature","geometry":{"type":"Point","coordinates":[153.0225,-27.3575,0]},"properties":{"Site Name":"ASPLEY EXCHANGE","Street":"728 ZILLMERE RD","City":"ASPLEY","State/terr":"QLD","Post code":4034,"AvailableS":"100","SA1_CODE21":"30202102710","STE_CODE21":"3","STE_NAME21":"Queensland"}},
{"type":"Feature","geometry":{"type":"Point","coordinates":[152.9775,-27.2691666666667,0]},"properties":{"Site Name":"PETRIE EXCHANGE","Street":"6 DAYBORO RD","City":"PETRIE","State/terr":"QLD","Post code":4502,"AvailableS":"100","SA1_CODE21":"31403139307","STE_CODE21":"3","STE_NAME21":"Queensland"}},
{"type":"Feature","geometry":{"type":"Point","coordinates":[152.933611111111,-29.6891666666667,0]},"properties":{"Site Name":"GRAFTON EXCHANGE","Street":"15 KING ST","City":"GRAFTON","State/terr":"NSW","Post code":2460,"AvailableS":"100","SA1_CODE21":"10401108031","STE_CODE21":"1","STE_NAME21":"New South Wales"}},
{"type":"Feature","geometry":{"type":"Point","coordinates":[138.585,-34.9922222222222,0]},"properties":{"Site Name":"ST MARYS EXCHANGE","Street":"LOT 121184 DAWS RD","City":"DAW PARK","State/terr":"SA","Post code":5041,"AvailableS":"100","SA1_CODE21":"40303106814","STE_CODE21":"4","STE_NAME21":"South Australia"}},
{"type":"Feature","geometry":{"type":"Point","coordinates":[137.7625,-32.4913888888889,0]},"properties":{"Site Name":"PORT AUGUSTA EXCHANGE","Street":"5 MACKAY ST","City":"PORT AUGUSTA","State/terr":"SA","Post code":5700,"AvailableS":"100","SA1_CODE21":"40602114233","STE_CODE21":"4","STE_NAME21":"South Australia"}},
{"type":"Feature","geometry":{"type":"Point","coordinates":[144.883333333333,-37.705,0]},"properties":{"Site Name":"TULLAMARINE","Street":"143 MELROSE DRIVE","City":"TULLAMARINE","State/terr":"VIC","Post code":3043,"AvailableS":"100","SA1_CODE21":"21005125004","STE_CODE21":"2","STE_NAME21":"Victoria"}},
{"type":"Feature","geometry":{"type":"Point","coordinates":[145.2825,-38.1041666666667,0]},"properties":{"Site Name":"CRANBOURNE EXCHANGE","Street":"190 HIGH ST","City":"CRANBOURNE","State/terr":"VIC","Post code":3977,"AvailableS":"100","SA1_CODE21":"21203130017","STE_CODE21":"2","STE_NAME21":"Victoria"}},
{"type":"Feature","geometry":{"type":"Point","coordinates":[146.778333333333,-19.2836111111111,0]},"properties":{"Site Name":"GULLIVER","Street":"22 SARGEANT ST","City":"GULLIVER","State/terr":"QLD","Post code":4812,"AvailableS":"250","SA1_CODE21":"31802147604","STE_CODE21":"3","STE_NAME21":"Queensland"}},
{"type":"Feature","geometry":{"type":"Point","coordinates":[115.756666666667,-31.7897222222222,0]},"properties":{"Site Name":"MULLALOO","Street":"1 CORAL ST","City":"CRAIGIE","State/terr":"WA","Post code":6025,"AvailableS":"100","SA1_CODE21":"50501107011","STE_CODE21":"5","STE_NAME21":"Western Australia"}},
{"type":"Feature","geometry":{"type":"Point","coordinates":[148.602222222222,-32.2463888888889,0]},"properties":{"Site Name":"DUBBO EXCHANGE","Street":"100 MACQUARIE ST","City":"DUBBO","State/terr":"NSW","Post code":2830,"AvailableS":"442","SA1_CODE21":"10503110137","STE_CODE21":"1","STE_NAME21":"New South Wales"}},
{"type":"Feature","geometry":{"type":"Point","coordinates":[144.659444444444,-37.8958333333333,0]},"properties":{"Site Name":"WERRIBEE EXCHANGE","Street":"51 MARKET RD","City":"WERRIBEE","State/terr":"VIC","Post code":3030,"AvailableS":"100","SA1_CODE21":"21305146712","STE_CODE21":"2","STE_NAME21":"Victoria"}},
{"type":"Feature","geometry":{"type":"Point","coordinates":[151.735,-32.8963888888889,0]},"properties":{"Site Name":"MAYFIELD EXCHANGE","Street":"314 MAITLAND RD","City":"NewCastle","State/terr":"NSW","Post code":2304,"AvailableS":"100","SA1_CODE21":"11103122732","STE_CODE21":"1","STE_NAME21":"New South Wales"}},
{"type":"Feature","geometry":{"type":"Point","coordinates":[151.735,-32.8963888888889,0]},"properties":{"Site Name":"MAYFIELD EXCHANGE","Street":"314 MAITLAND RD","City":"NewCastle","State/terr":"NSW","Post code":2304,"AvailableS":"100","SA1_CODE21":"11103122732","STE_CODE21":"1","STE_NAME21":"New South Wales"}},
{"type":"Feature","geometry":{"type":"Point","coordinates":[115.838333333333,-32.0163888888889,0]},"properties":{"Site Name":"APPLECROSS EXCHANGE","Street":"101 ARDROSS ST","City":"APPLECROSS","State/terr":"WA","Post code":6153,"AvailableS":"100","SA1_CODE21":"50704117504","STE_CODE21":"5","STE_NAME21":"Western Australia"}},
{"type":"Feature","geometry":{"type":"Point","coordinates":[138.716944444444,-35.0066666666667,0]},"properties":{"Site Name":"STIRLING","Street":"MOUNT BARKER RD","City":"STIRLING","State/terr":"SA","Post code":5152,"AvailableS":"100","SA1_CODE21":"40102100417","STE_CODE21":"4","STE_NAME21":"South Australia"}},
{"type":"Feature","geometry":{"type":"Point","coordinates":[115.786666666667,-31.8986111111111,0]},"properties":{"Site Name":"DOUBLEVIEW EXCHANGE","Street":"SCARBOROUGH BEACH RD","City":"DOUBLEVIEW","State/terr":"WA","Post code":6018,"AvailableS":"100","SA1_CODE21":"50502108814","STE_CODE21":"5","STE_NAME21":"Western Australia"}},
{"type":"Feature","geometry":{"type":"Point","coordinates":[115.881944444444,-31.7963888888889,0]},"properties":{"Site Name":"GNANGARA EXCHANGE","Street":"620 GNANGARA RD","City":"CULLACABARDEE","State/terr":"WA","Post code":6067,"AvailableS":"100","SA1_CODE21":"50503130425","STE_CODE21":"5","STE_NAME21":"Western Australia"}},
{"type":"Feature","geometry":{"type":"Point","coordinates":[115.881944444444,-31.7963888888889,0]},"properties":{"Site Name":"GNANGARA EXCHANGE","Street":"620 GNANGARA RD","City":"CULLACABARDEE","State/terr":"WA","Post code":6067,"AvailableS":"100","SA1_CODE21":"50503130425","STE_CODE21":"5","STE_NAME21":"Western Australia"}},
{"type":"Feature","geometry":{"type":"Point","coordinates":[151.231111111111,-33.7294444444444,0]},"properties":{"Site Name":"OXFORD FALLS EXCHANGE","Street":"995 OXFORD FALLS RD","City":"OXFORD FALLS","State/terr":"NSW","Post code":2100,"AvailableS":"100","SA1_CODE21":"12203169636","STE_CODE21":"1","STE_NAME21":"New South Wales"}},
{"type":"Feature","geometry":{"type":"Point","coordinates":[149.0976282917,-35.2756555077,0]},"properties":{"Site Name":"BLACK MOUNTAIN TOWER","Street":"100 BLACK MOUNTAIN DRIVE","City":"CANBERRA","State/terr":"ACT","Post code":2601,"AvailableS":"100","SA1_CODE21":"80105112301","STE_CODE21":"8","STE_NAME21":"Australian Capital Territory"}},
{"type":"Feature","geometry":{"type":"Point","coordinates":[151.191111111111,-33.8188888888889,0]},"properties":{"Site Name":"ST LEONARDS DATA CENTRE","Street":"4 Herbert Street","City":"ST LEONARDS","State/terr":"NSW","Post code":2065,"AvailableS":"1468","SA1_CODE21":"12101140106","STE_CODE21":"1","STE_NAME21":"New South Wales"}},
{"type":"Feature","geometry":{"type":"Point","coordinates":[145.133933,-37.918557,0]},"properties":{"Site Name":"CLAYTON ADP CENTRE","Street":"1822 Princes Highway","City":"CLAYTON","State/terr":"VIC","Post code":3168,"AvailableS":"1631","SA1_CODE21":"21205156718","STE_CODE21":"2","STE_NAME21":"Victoria"}},
{"type":"Feature","geometry":{"type":"Point","coordinates":[145.133933,-37.918557,0]},"properties":{"Site Name":"CLAYTON ADP CENTRE","Street":"1822 Princes Highway","City":"CLAYTON","State/terr":"VIC","Post code":3168,"AvailableS":"1631","SA1_CODE21":"21205156718","STE_CODE21":"2","STE_NAME21":"Victoria"}},
{"type":"Feature","geometry":{"type":"Point","coordinates":[151.779609067,-32.9274505346,0]},"properties":{"Site Name":"WOLFE EXCHANGE","Street":"114 KING ST, NEWCASTLE, 2300","City":"NewCastle","State/terr":"NSW","Post code":2300,"AvailableS":"100","SA1_CODE21":"11103122905","STE_CODE21":"1","STE_NAME21":"New South Wales"}},
{"type":"Feature","geometry":{"type":"Point","coordinates":[152.826497238039,-27.5954582368549,0]},"properties":{"Site Name":"BUNDAMBA DATA CENTRE","Street":"NEAR 46 HOEPNER RD, BUNDAMBA, 4304","City":"BUNDAMBA","State/terr":"QLD","Post code":4304,"AvailableS":"100","SA1_CODE21":"31003128423","STE_CODE21":"3","STE_NAME21":"Queensland"}},
{"type":"Feature","geometry":{"type":"Point","coordinates":[151.86842,-32.74134,0]},"properties":{"Site Name":"MEDOWIE EXCHANGE","Street":"MDWI - MEDOWIE EXCHANGE","City":"NewCastle","State/terr":"NSW","Post code":2318,"AvailableS":"100","SA1_CODE21":"10603112525","STE_CODE21":"1","STE_NAME21":"New South Wales"}},
{"type":"Feature","geometry":{"type":"Point","coordinates":[151.69937,-32.822315,0]},"properties":{"Site Name":"TOMAGO","Street":"TOMAGO EXCHANGE","City":"NewCastle","State/terr":"NSW","Post code":2322,"AvailableS":"100","SA1_CODE21":"10603112202","STE_CODE21":"1","STE_NAME21":"New South Wales"}},
{"type":"Feature","geometry":{"type":"Point","coordinates":[151.720971,-32.951171,0]},"properties":{"Site Name":"ADAMSTOWN HEIGHTS RAD","Street":"ADAMSTOWN RT","City":"NewCastle","State/terr":"NSW","Post code":2289,"AvailableS":"100","SA1_CODE21":"11103122233","STE_CODE21":"1","STE_NAME21":"New South Wales"}},
{"type":"Feature","geometry":{"type":"Point","coordinates":[151.84329,-32.806885,0]},"properties":{"Site Name":"WILLIAMTOWN","Street":"WILLIAMTOWN EXCHANGE","City":"NewCastle","State/terr":"NSW","Post code":2318,"AvailableS":"100","SA1_CODE21":"10603112516","STE_CODE21":"1","STE_NAME21":"New South Wales"}},
{"type":"Feature","geometry":{"type":"Point","coordinates":[151.71289,-32.923428,0]},"properties":{"Site Name":"NEW LAMBTON EXCHANGE","Street":"NLTN - NEW LAMBTON EXCHANGE","City":"NewCastle","State/terr":"NSW","Post code":2305,"AvailableS":"100","SA1_CODE21":"11103122507","STE_CODE21":"1","STE_NAME21":"New South Wales"}},
{"type":"Feature","geometry":{"type":"Point","coordinates":[151.73488,-32.896545,0]},"properties":{"Site Name":"MAYFIELD EXCHANGE","Street":"MAYF - MAYFIELD TE MOBILES HUT","City":"NewCastle","State/terr":"NSW","Post code":2304,"AvailableS":"100","SA1_CODE21":"11103122732","STE_CODE21":"1","STE_NAME21":"New South Wales"}},
{"type":"Feature","geometry":{"type":"Point","coordinates":[151.73488,-32.896545,0]},"properties":{"Site Name":"MAYFIELD EXCHANGE","Street":"MAYF - MAYFIELD TE MOBILES HUT","City":"NewCastle","State/terr":"NSW","Post code":2304,"AvailableS":"100","SA1_CODE21":"11103122732","STE_CODE21":"1","STE_NAME21":"New South Wales"}},
{"type":"Feature","geometry":{"type":"Point","coordinates":[151.912574061548,-32.7885972313527,0]},"properties":{"Site Name":"SALT ASH","Street":"SALT ASH EXCHANGE","City":"NewCastle","State/terr":"NSW","Post code":2318,"AvailableS":"100","SA1_CODE21":"10603112507","STE_CODE21":"1","STE_NAME21":"New South Wales"}},
{"type":"Feature","geometry":{"type":"Point","coordinates":[151.64621,-32.87424,0]},"properties":{"Site Name":"WALLSEND MARYLAND MDF2","Street":"WALLSEND OUTPOSTED MDF","City":"NewCastle","State/terr":"NSW","Post code":2287,"AvailableS":"100","SA1_CODE21":"11103122613","STE_CODE21":"1","STE_NAME21":"New South Wales"}},
{"type":"Feature","geometry":{"type":"Point","coordinates":[151.59529,-32.834675,0]},"properties":{"Site Name":"BENWERRIN TE","Street":"BWIN - BENWERRIN TE","City":"NewCastle","State/terr":"NSW","Post code":2322,"AvailableS":"100","SA1_CODE21":"10601110912","STE_CODE21":"1","STE_NAME21":"New South Wales"}},
{"type":"Feature","geometry":{"type":"Point","coordinates":[151.87477991,-32.73730528,0]},"properties":{"Site Name":"MEDOWIE CMTS","Street":"WATER RESERVOIR MEDOWIE","City":"NewCastle","State/terr":"NSW","Post code":2318,"AvailableS":"100","SA1_CODE21":"10603112523","STE_CODE21":"1","STE_NAME21":"New South Wales"}},
{"type":"Feature","geometry":{"type":"Point","coordinates":[151.79425,-32.885185,0]},"properties":{"Site Name":"STOCKTON EXCHANGE","Street":"STKN - STOCKTON TE MOB BRICK HUT","City":"NewCastle","State/terr":"NSW","Post code":2295,"AvailableS":"100","SA1_CODE21":"11103123211","STE_CODE21":"1","STE_NAME21":"New South Wales"}},
{"type":"Feature","geometry":{"type":"Point","coordinates":[151.779609067,-32.9274505346,0]},"properties":{"Site Name":"WOLFE EXCHANGE","Street":"WOLF - WOLFE TE","City":"NewCastle","State/terr":"NSW","Post code":2300,"AvailableS":"100","SA1_CODE21":"11103122905","STE_CODE21":"1","STE_NAME21":"New South Wales"}},
{"type":"Feature","geometry":{"type":"Point","coordinates":[151.6586,-32.946896,0]},"properties":{"Site Name":"CARDIFF EXCHANGE","Street":"CRDF - CARDIFF TE","City":"NewCastle","State/terr":"NSW","Post code":2285,"AvailableS":"100","SA1_CODE21":"11101120926","STE_CODE21":"1","STE_NAME21":"New South Wales"}},
{"type":"Feature","geometry":{"type":"Point","coordinates":[151.65718,-32.807594,0]},"properties":{"Site Name":"TARRO EXCHANGE","Street":"TARR - TARRO EXCHANGE","City":"NewCastle","State/terr":"NSW","Post code":2322,"AvailableS":"100","SA1_CODE21":"11103122312","STE_CODE21":"1","STE_NAME21":"New South Wales"}},
{"type":"Feature","geometry":{"type":"Point","coordinates":[151.6727272624,-32.901256892,0]},"properties":{"Site Name":"WALLSEND EXCHANGE","Street":"WALLSEND EXCHANGE","City":"NewCastle","State/terr":"NSW","Post code":2287,"AvailableS":"100","SA1_CODE21":"11103123312","STE_CODE21":"1","STE_NAME21":"New South Wales"}},
{"type":"Feature","geometry":{"type":"Point","coordinates":[151.74873,-32.926155,0]},"properties":{"Site Name":"HAMILTON EXCHANGE","Street":"HAMN - HAMILTON EXCHANGE","City":"NewCastle","State/terr":"NSW","Post code":2303,"AvailableS":"727","SA1_CODE21":"11103122426","STE_CODE21":"1","STE_NAME21":"New South Wales"}}
]}